{"Stations":[{"Code":"E01","Name":"Mt Vernon Sq 7th St-Convention Center","StationTogether1":"","StationTogether2":"","LineCode1":"GR","LineCode2":"YL","LineCode3":null,"LineCode4":null,"Lat":38.905604,"Lon":-77.022256,"Address":{"Street":"700 M St. NW","City":"Washington","State":"DC","Zip":"20001"}},{"Code":"E02","Name":"Shaw-Howard U","StationTogether1":"","StationTogether2":"","LineCode1":"GR","LineCode2":"YL","LineCode3":null,"LineCode4":null,"Lat":38.912919,"Lon":-77.022194,"Address":{"Street":"1701 8th St. NW","City":"Washington","State":"DC","Zip":"20001"}},{"Code":"E03","Name":"U Street/African-Amer Civil War Memorial/Cardozo","StationTogether1":"","StationTogether2":"","LineCode1":"GR","LineCode2":"YL","LineCode3":null,"LineCode4":null,"Lat":38.916489,"Lon":-77.028938,"Address":{"Street":"1240 U Street NW","City":"Washington","State":"DC","Zip":"20009"}},{"Code":"E04","Name":"Columbia Heights","StationTogether1":"","StationTogether2":"","LineCode1":"GR","LineCode2":"YL","LineCode3":null,"LineCode4":null,"Lat":38.928672,"Lon":-77.032775,"Address":{"Street":"3030 14th St. NW","City":"Washington","State":"DC","Zip":"20009"}},{"Code":"E05","Name":"Georgia Ave-Petworth","StationTogether1":"","StationTogether2":"","LineCode1":"GR","LineCode2":"YL","LineCode3":null,"LineCode4":null,"Lat":38.936077,"Lon":-77.024728,"Address":{"Street":"3700 Georgia Avenue NW","City":"Washington","State":"DC","Zip":"20010"}},{"Code":"E06","Name":"Fort Totten","StationTogether1":"B06","StationTogether2":"","LineCode1":"GR","LineCode2":"YL","LineCode3":null,"LineCode4":null,"Lat":38.951777,"Lon":-77.002174,"Address":{"Street":"550 Galloway Street NE","City":"Washington","State":"DC","Zip":"20011"}},{"Code":"E07","Name":"West Hyattsville","StationTogether1":"","StationTogether2":"","LineCode1":"GR","LineCode2":null,"LineCode3":null,"LineCode4":null,"Lat":38.954931,"Lon":-76.969881,"Address":{"Street":"2700 Hamilton St.","City":"Hyattsville","State":"MD","Zip":"20782"}},{"Code":"E08","Name":"Prince George's Plaza","StationTogether1":"","StationTogether2":"","LineCode1":"GR","LineCode2":null,"LineCode3":null,"LineCode4":null,"Lat":38.965276,"Lon":-76.956182,"Address":{"Street":"3575 East West Highway","City":"Hyattsville","State":"MD","Zip":"20782"}},{"Code":"E09","Name":"College Park-U of MD","StationTogether1":"","StationTogether2":"","LineCode1":"GR","LineCode2":null,"LineCode3":null,"LineCode4":null,"Lat":38.978523,"Lon":-76.928432,"Address":{"Street":"4931 Calvert Road","City":"College Park","State":"MD","Zip":"20740"}},{"Code":"E10","Name":"Greenbelt","StationTogether1":"","StationTogether2":"","LineCode1":"GR","LineCode2":null,"LineCode3":null,"LineCode4":null,"Lat":39.011036,"Lon":-76.911362,"Address":{"Street":"5717 Greenbelt Metro Drive","City":"Greenbelt","State":"MD","Zip":"20740"}},{"Code":"F01","Name":"Gallery Pl-Chinatown","StationTogether1":"B01","StationTogether2":"","LineCode1":"GR","LineCode2":"YL","LineCode3":null,"LineCode4":null,"Lat":38.89834,"Lon":-77.021851,"Address":{"Street":"630 H St. NW","City":"Washington","State":"DC","Zip":"20001"}},{"Code":"F02","Name":"Archives-Navy Memorial-Penn Quarter","StationTogether1":"","StationTogether2":"","LineCode1":"GR","LineCode2":"YL","LineCode3":null,"LineCode4":null,"Lat":38.893893,"Lon":-77.021902,"Address":{"Street":"701 Pennsylvania Avenue NW","City":"Washington","State":"DC","Zip":"20004"}},{"Code":"F03","Name":"L'Enfant Plaza","StationTogether1":"D03","StationTogether2":"","LineCode1":"GR","LineCode2":"YL","LineCode3":null,"LineCode4":null,"Lat":38.884775,"Lon":-77.021964,"Address":{"Street":"600 Maryland Avenue SW","City":"Washington","State":"DC","Zip":"20024"}},{"Code":"F04","Name":"Waterfront","StationTogether1":"","StationTogether2":"","LineCode1":"GR","LineCode2":null,"LineCode3":null,"LineCode4":null,"Lat":38.876221,"Lon":-77.017491,"Address":{"Street":"399 M Street SW","City":"Washington","State":"DC","Zip":"20024"}},{"Code":"F05","Name":"Navy Yard-Ballpark","StationTogether1":"","StationTogether2":"","LineCode1":"GR","LineCode2":null,"LineCode3":null,"LineCode4":null,"Lat":38.876588,"Lon":-77.005086,"Address":{"Street":"200 M Street SE","City":"Washington","State":"DC","Zip":"20003"}},{"Code":"F06","Name":"Anacostia","StationTogether1":"","StationTogether2":"","LineCode1":"GR","LineCode2":null,"LineCode3":null,"LineCode4":null,"Lat":38.862072,"Lon":-76.995648,"Address":{"Street":"1101 Howard Road SE","City":"Washington","State":"DC","Zip":"20020"}},{"Code":"F07","Name":"Congress Heights","StationTogether1":"","StationTogether2":"","LineCode1":"GR","LineCode2":null,"LineCode3":null,"LineCode4":null,"Lat":38.845334,"Lon":-76.98817,"Address":{"Street":"1290 Alabama Avenue SE","City":"Washington","State":"DC","Zip":"20020"}},{"Code":"F08","Name":"Southern Avenue","StationTogether1":"","StationTogether2":"","LineCode1":"GR","LineCode2":null,"LineCode3":null,"LineCode4":null,"Lat":38.840974,"Lon":-76.97536,"Address":{"Street":"1411 Southern Avenue","City":"Temple Hills","State":"MD","Zip":"20748"}},{"Code":"F09","Name":"Naylor Road","StationTogether1":"","StationTogether2":"","LineCode1":"GR","LineCode2":null,"LineCode3":null,"LineCode4":null,"Lat":38.851187,"Lon":-76.956565,"Address":{"Street":"3101 Branch Avenue","City":"Temple Hills","State":"MD","Zip":"20748"}},{"Code":"F10","Name":"Suitland","StationTogether1":"","StationTogether2":"","LineCode1":"GR","LineCode2":null,"LineCode3":null,"LineCode4":null,"Lat":38.843891,"Lon":-76.932022,"Address":{"Street":"4500 Silver Hill Road","City":"Suitland","State":"MD","Zip":"20746"}},{"Code":"F11","Name":"Branch Ave","StationTogether1":"","StationTogether2":"","LineCode1":"GR","LineCode2":null,"LineCode3":null,"LineCode4":null,"Lat":38.826995,"Lon":-76.912134,"Address":{"Street":"4704 Old Soper Road","City":"Suitland","State":"MD","Zip":"20746"}}]}